{
  "source": "https://sos.yummyrides.com",
  "fetched_at": "2026-06-30T20:52:53.919Z",
  "stats": {
    "report_count": null,
    "acopio_count": null,
    "reports_in_snapshot": 51,
    "centers_in_snapshot": 56
  },
  "damage_reports": [
    {
      "id": "c966fdaa-4f18-402f-85dd-5f24e9517f99",
      "lat": 10.5165843,
      "lng": -66.9229382,
      "address": "Calle san fernando a san Antonio",
      "city": "La pastora",
      "state": "Distrito Capital",
      "severity": "moderado",
      "status": "received",
      "description": "Pared de lq cuartos y sala deteriorada abierras",
      "ticket": "YMY-2026-1769",
      "photoCount": 0,
      "createdAt": "2026-06-30T20:50:14.736Z",
      "peopleAtRisk": false
    },
    {
      "id": "e94165e2-8c8c-4910-9ed7-77a3ad2a69aa",
      "lat": 10.464574418453727,
      "lng": -66.9073233,
      "address": "Avenida San Juan Bautista, Sector el tablón",
      "city": "Marina Grande",
      "state": "La Guaira",
      "severity": "colapso",
      "status": "received",
      "description": "Parte del techo del edificio se cayó, también cerámica del suelo del patio del edificio se rompió, pared por donde pasa una columna del apartamento levemente agrietada",
      "ticket": "YMY-2026-1768",
      "photoCount": 4,
      "createdAt": "2026-06-30T20:45:05.020Z",
      "peopleAtRisk": false
    },
    {
      "id": "ae863d47-e6e3-451c-ab72-b834091d037c",
      "lat": 10.5109742,
      "lng": -66.9073233,
      "address": "Cumanagoto",
      "city": "Marina Grande",
      "state": "Distrito Capital",
      "severity": "colapso",
      "status": "engineering_assessed",
      "description": "Fisuras y grietas en apartamentos y escaleras",
      "ticket": "YMY-2026-1767",
      "photoCount": 1,
      "createdAt": "2026-06-30T20:25:23.669Z",
      "peopleAtRisk": true
    },
    {
      "id": "f25605fa-2498-4f6e-bd7c-39e644c7795c",
      "lat": 10.4925507,
      "lng": -66.850139,
      "address": "Av. Santa Ana, Boulevard La Cruz, Casa 15-03, Urbanización Bello Campo, Municipio Chacao",
      "city": "Caracas",
      "state": "Miranda",
      "severity": "moderado",
      "status": "engineering_assessed",
      "description": "Paredes divisorias con daños visibles. La zona no ha sido evaluada por autoridades competentes y hay cierto riesgo: muchos edificios de la zona tienen daños visibles o están inhabilitados. La prioridad ha estado, con justa razón, en evacuar e inspeccionar esos edificios, pero no han venido a evaluar el Sector La Cruz de Bello Campo completo.",
      "ticket": "YMY-2026-1765",
      "photoCount": 9,
      "createdAt": "2026-06-30T20:19:01.729Z",
      "peopleAtRisk": false
    },
    {
      "id": "04fafa5a-4ae8-4b21-afb5-b7352485e93f",
      "lat": 10.4925507,
      "lng": -66.850139,
      "address": "Av Bogotá, estacionamiento Bogotá. Frente al cc Veracruz",
      "city": "El Cementerio, parroquia Santa Rosalía",
      "state": "Distrito Capital",
      "severity": "moderado",
      "status": "engineering_assessed",
      "description": "Columna del estacionamiento fracturasa y bastante deteriorada",
      "ticket": "YMY-2026-1764",
      "photoCount": 2,
      "createdAt": "2026-06-30T20:19:01.729Z",
      "peopleAtRisk": false
    },
    {
      "id": "fa9d9308-0841-4f39-b369-857e108aedad",
      "lat": 10.4812607348886,
      "lng": -66.91687826973232,
      "address": "Av Bogotá, residencias Bogotá. Al lado del estacionamiento Bogotá, dónde está la pollera Mac Pollo",
      "city": "El Cementerio, parroquia Santa Rosalía",
      "state": "Distrito Capital",
      "severity": "moderado",
      "status": "engineering_assessed",
      "description": "Paredes de los pisos agrietadas y dañadas. Pared del piso 5 muy deteriorada, pareciera que está doblada",
      "ticket": "YMY-2026-1763",
      "photoCount": 2,
      "createdAt": "2026-06-30T20:07:06.766Z",
      "peopleAtRisk": false
    },
    {
      "id": "8884367c-dfa0-4ea9-b24d-020d48d70007",
      "lat": 10.4812607348886,
      "lng": -66.91687826973232,
      "address": "Av Bogotá, residencias Bogotá. Al lado del estacionamiento Bogotá, dónde está la pollera Mac Pollo",
      "city": "El Cementerio, parroquia Santa Rosalía",
      "state": "Distrito Capital",
      "severity": "moderado",
      "status": "engineering_assessed",
      "description": "Paredes de los pisos agrietadas y dañadas. Pared del piso 5 muy deteriorada, pareciera que está doblada",
      "ticket": "YMY-2026-1763",
      "photoCount": 9,
      "createdAt": "2026-06-30T20:07:06.766Z",
      "peopleAtRisk": false
    },
    {
      "id": "0c6985e8-63ef-4846-888a-0920b7b04986",
      "lat": 10.087195,
      "lng": -67.9153711,
      "address": "Calle el progreso cancha Marin Gil",
      "city": "Caracas municipio Libertador",
      "state": "Carabobo",
      "status": "engineering_assessed",
      "description": "Pared lateral con Huevos y fisuras graves con caída hacia a un lado .",
      "photoCount": 3,
      "createdAt": "2026-06-30T19:11:56.280Z",
      "peopleAtRisk": false
    },
    {
      "id": "9af1bbba-9e4a-42e6-998e-773b20946dc5",
      "lat": 10.4843742,
      "lng": -66.8972709,
      "address": "Edificio Evelin frente a cervecería las acacias",
      "city": "Caracas municipio Libertador",
      "state": "Distrito Capital",
      "severity": "moderado",
      "status": "engineering_assessed",
      "description": "Grieta horizontal exterior en último piso",
      "ticket": "YMY-2026-1761",
      "photoCount": 3,
      "createdAt": "2026-06-30T19:11:56.280Z",
      "peopleAtRisk": false
    },
    {
      "id": "724a8325-f5d7-4fba-866f-fcccd04a03e0",
      "lat": 10.2442012,
      "lng": -67.598941,
      "address": "Detrás de la Estación del Metro Ruíz Pineda, Barrio La Cidra, Casa N° A-13",
      "city": "Maracay",
      "state": "Distrito Capital",
      "severity": "moderado",
      "status": "received",
      "description": "Dos columnas afectadas, columnas A se encuentra con grieta horizontal por la parte exterior y grietas internas / externas dónde se observa desprendimiento de las paredes, columna B ciertas grietas parecen superficiales, sin embargo se extiende por más de 1,5 metros. Por otra parte, se observas grietas en fachada tanto internas como externas dónde se encuentran las columnas que están afectadas, no se descarta una evaluación técnica, sin embargo, la documentación audio visual e imágenes muestran más detalles.",
      "ticket": "YMY-2026-1759",
      "photoCount": 4,
      "createdAt": "2026-06-30T18:56:56.974Z",
      "peopleAtRisk": false
    },
    {
      "id": "6143d69c-7f17-4945-91d0-b2ae8ea38da5",
      "lat": 10.437261,
      "lng": -66.9999434,
      "address": "Detrás de la Estación del Metro Ruíz Pineda, Barrio La Cidra, Casa N° A-13",
      "city": "Caracas",
      "state": "Distrito Capital",
      "severity": "moderado",
      "status": "received",
      "description": "Dos columnas afectadas, columnas A se encuentra con grieta horizontal por la parte exterior y grietas internas / externas dónde se observa desprendimiento de las paredes, columna B ciertas grietas parecen superficiales, sin embargo se extiende por más de 1,5 metros. Por otra parte, se observas grietas en fachada tanto internas como externas dónde se encuentran las columnas que están afectadas, no se descarta una evaluación técnica, sin embargo, la documentación audio visual e imágenes muestran más detalles.",
      "ticket": "YMY-2026-1758",
      "photoCount": 7,
      "createdAt": "2026-06-30T18:56:56.974Z",
      "peopleAtRisk": false
    },
    {
      "id": "62e66463-4f00-4813-aa2f-16ea1ffc4bf3",
      "lat": 10.598879129265233,
      "lng": -66.96286350488664,
      "address": "Calle panama con avenida libertador",
      "city": "Maracay, Sector las delicias",
      "state": "Aragua",
      "severity": "moderado",
      "status": "received",
      "description": "Grieta horizontal en el patio, justamente el lugar donde se guardan cosas (es la más preocupante) . Gritas leves en el segundo piso de la casa. Grietas en la pared que limita la casa. Grieta justamente abajo de una viga de carga.",
      "ticket": "YMY-2026-1756",
      "photoCount": 10,
      "createdAt": "2026-06-30T18:45:42.232Z",
      "peopleAtRisk": false
    },
    {
      "id": "10ac368c-1eec-4d69-bab0-1e9e3689d185",
      "lat": 10.598879129265233,
      "lng": -66.96286350488664,
      "address": "Bloque 5 de pariata",
      "city": "Maracay, Sector las delicias",
      "state": "La Guaira",
      "severity": "moderado",
      "status": "received",
      "description": "Grieta horizontal en el patio, justamente el lugar donde se guardan cosas (es la más preocupante) . Gritas leves en el segundo piso de la casa. Grietas en la pared que limita la casa. Grieta justamente abajo de una viga de carga.",
      "ticket": "YMY-2026-1755",
      "photoCount": 9,
      "createdAt": "2026-06-30T18:45:42.232Z",
      "peopleAtRisk": false
    },
    {
      "id": "853ddd25-9c82-4332-b24e-7c0b7fdf255d",
      "lat": 10.598879129265233,
      "lng": -66.96286350488664,
      "address": "Bloque 5 de pariata",
      "city": "Pariata",
      "state": "La Guaira",
      "severity": "severo",
      "status": "received",
      "description": "Daño total",
      "ticket": "YMY-2026-1755",
      "photoCount": 3,
      "createdAt": "2026-06-30T18:25:38.268Z",
      "peopleAtRisk": false
    },
    {
      "id": "7ca86c59-aa67-4cd6-9bf8-f4baeca628f9",
      "lat": 10.474948,
      "lng": -66.9747556,
      "address": "Carapita Barrio San José, Callejón 5 de Julio #203-3",
      "city": "Guatire",
      "state": "Distrito Capital",
      "severity": "moderado",
      "status": "received",
      "description": "Las escaleras se levantaron estan inestable",
      "ticket": "YMY-2026-1753",
      "photoCount": 4,
      "createdAt": "2026-06-30T18:12:39.013Z",
      "peopleAtRisk": false
    },
    {
      "id": "9e3804b3-f7b1-4a52-920a-eefcf608fe0e",
      "lat": 10.426906598545473,
      "lng": -68.49470481116717,
      "address": "El Cinego",
      "city": "Caracas parroquia Antimano",
      "state": "Yaracuy",
      "severity": "moderado",
      "status": "received",
      "description": "Paredes con grietas, una grieta en el piso, daño visible en el techo que ya estaba por un filtración pero se puso peor luego se los sismos, en esta casa vivimos mis padres, mis tres hijos, mi pareja y yo",
      "ticket": "YMY-2026-1753",
      "photoCount": 6,
      "createdAt": "2026-06-30T18:12:39.013Z",
      "peopleAtRisk": false
    },
    {
      "id": "400b549c-3738-461c-b9c6-3f82208be2a9",
      "lat": 10.426906598545473,
      "lng": -68.49470481116717,
      "address": "El Cinego",
      "city": "Veroes",
      "state": "Yaracuy",
      "severity": "colapso",
      "status": "received",
      "description": "Los afectados de la vivienda ElvisRodriguez 32 años, Yasneir Acosta 20años , Elvismar Rodriguez 2 años. La casa se desplomo y ellos estan viviendo en carpas afuera del terreno esta en completas ruinas no hay agua potable los insumos son escasos y no cuentan con luz en el municipio ni señal. Me estoy haciendo responsable de la comunicacion para poder brindarles ayuda",
      "ticket": "YMY-2026-1752",
      "photoCount": 1,
      "createdAt": "2026-06-30T17:42:13.739Z",
      "peopleAtRisk": false
    },
    {
      "id": "586ffa17-ee88-4b9d-b490-e7de786a0f27",
      "lat": 10.080632764234762,
      "lng": -69.32327885854698,
      "address": "Urb Jose antonio paez",
      "city": "Catia la mar",
      "state": "La Guaira",
      "severity": "severo",
      "status": "received",
      "description": "Daños total el edificio",
      "ticket": "YMY-2026-1750",
      "photoCount": 5,
      "createdAt": "2026-06-30T17:09:34.344Z",
      "peopleAtRisk": false
    },
    {
      "id": "242cb0d1-7f41-4f23-b7f8-d4c18914ea68",
      "lat": 10.080632764234762,
      "lng": -69.32327885854698,
      "address": "Urb Jose antonio paez",
      "city": "Catia la mar",
      "state": "Otro",
      "severity": "moderado",
      "status": "received",
      "description": "Daños total el edificio",
      "ticket": "YMY-2026-1750",
      "photoCount": 1,
      "createdAt": "2026-06-30T17:09:34.344Z",
      "peopleAtRisk": false
    },
    {
      "id": "e51c177f-6dab-4be0-b48d-1e15fca93dbc",
      "lat": 10.080632764234762,
      "lng": -69.32327885854698,
      "address": "Carrera 34",
      "city": "Barquisimeto",
      "state": "Otro",
      "severity": "moderado",
      "status": "received",
      "description": "3 de las Columnas base (planta baja) tienen grietas que se notaron luego del terremoto",
      "ticket": "YMY-2026-1749",
      "photoCount": 4,
      "createdAt": "2026-06-30T16:57:59.167Z",
      "peopleAtRisk": false
    },
    {
      "id": "65c016db-9be9-4cc4-a3f9-5e863fb1e98f",
      "lat": 10.511909100247381,
      "lng": -66.9347243,
      "address": "Calle Real Sierra Maestra",
      "city": "Altagracia",
      "state": "Distrito Capital",
      "severity": "moderado",
      "status": "received",
      "description": "Movimiento en vigas y paredes superiores, necesito que alguien venga a inspeccionar si la vivienda sigue siendo habitable ya que todas las paredes superiores se mueven incluso 2 vigas",
      "ticket": "YMY-2026-1748",
      "photoCount": 3,
      "createdAt": "2026-06-30T16:03:34.030Z",
      "peopleAtRisk": false
    },
    {
      "id": "56fd1942-9be2-47ea-b52c-58bdeb08fc7c",
      "lat": 10.4999798,
      "lng": -66.8717875,
      "address": "Final calle los mangos edif la estancia urb la campiña",
      "city": "Caracas",
      "state": "Distrito Capital",
      "severity": "moderado",
      "status": "received",
      "description": "2 paredes con grietas grandes y huecos en los ladrillos,2 paredes con Grietas en x no se ha tumbado el frizo, grieta en el marco de una habitación.",
      "ticket": "YMY-2026-1747",
      "photoCount": 3,
      "createdAt": "2026-06-30T16:03:34.030Z",
      "peopleAtRisk": false
    },
    {
      "id": "422777c6-dc9a-4615-8067-1c78c1c380a8",
      "lat": 10.4999798,
      "lng": -66.8717875,
      "address": "San Jose cotiza.comunidad 5 de marzo, Casa",
      "city": "Caracas",
      "state": "Distrito Capital",
      "severity": "moderado",
      "status": "received",
      "description": "2 paredes con grietas grandes y huecos en los ladrillos,2 paredes con Grietas en x no se ha tumbado el frizo, grieta en el marco de una habitación.",
      "ticket": "YMY-2026-1745",
      "photoCount": 9,
      "createdAt": "2026-06-30T15:23:54.949Z",
      "peopleAtRisk": false
    },
    {
      "id": "7957e992-7b00-41d7-9501-e073545dc590",
      "lat": 10.482989240963603,
      "lng": -66.9084107,
      "address": "San Jose cotiza.comunidad 5 de marzo, Casa",
      "city": "Caracas",
      "state": "Distrito Capital",
      "severity": "moderado",
      "status": "received",
      "description": "Pares del ascensor con visibles grietas en cerámica y cemento.",
      "ticket": "YMY-2026-1744",
      "photoCount": 10,
      "createdAt": "2026-06-30T15:23:54.949Z",
      "peopleAtRisk": false
    },
    {
      "id": "0b7ea35b-e195-4f9e-ae2c-373663405438",
      "lat": 10.482989240963603,
      "lng": -66.94807721476538,
      "address": "Callejón San Onofre casa 122",
      "city": "La Silsa calle principal",
      "state": "Distrito Capital",
      "severity": "moderado",
      "status": "received",
      "description": "Son una hilera de casas que dan hacia un talud, aproximadamente 15 casas",
      "ticket": "YMY-2026-1743",
      "photoCount": 2,
      "createdAt": "2026-06-30T14:59:55.033Z",
      "peopleAtRisk": false
    },
    {
      "id": "8e32b23b-1576-4a76-ba54-ad45362213ee",
      "lat": 10.520242277838879,
      "lng": -66.92171841859819,
      "address": "Puerta Caracas, esquina Encarnación, Edificio Encarnación",
      "city": "La Pastora",
      "state": "Distrito Capital",
      "severity": "moderado",
      "status": "received",
      "description": "Grietas en paredes del edificio, grietas en paredes del departamento y en algunas columnas",
      "ticket": "YMY-2026-1743",
      "photoCount": 1,
      "createdAt": "2026-06-30T14:40:55.198Z",
      "peopleAtRisk": false
    },
    {
      "id": "fa287145-e8dc-4555-9d4c-4c9adb82fbc2",
      "lat": 10.25762268150133,
      "lng": -67.60423416882814,
      "address": "Av 19 de Abril, torre A, piso 1 frente la clínica lugo",
      "city": "Maracay",
      "state": "Aragua",
      "severity": "leve",
      "status": "received",
      "description": "Grietas en paredes del edificio, grietas en paredes del departamento y en algunas columnas",
      "ticket": "YMY-2026-1741",
      "photoCount": 5,
      "createdAt": "2026-06-30T14:13:49.752Z",
      "peopleAtRisk": false
    },
    {
      "id": "e4d94787-f42b-434e-9754-8e42908afa8a",
      "lat": 10.494816734766394,
      "lng": -66.76262319087984,
      "address": "Av Sucre 1 transversal",
      "city": "Caraballeda",
      "state": "Distrito Capital",
      "severity": "colapso",
      "status": "received",
      "description": "Pared daños colaterales",
      "ticket": "YMY-2026-1740",
      "photoCount": 1,
      "createdAt": "2026-06-30T13:25:39.993Z",
      "peopleAtRisk": false
    },
    {
      "id": "d19d73eb-6505-4f49-a2ca-1c77374c7a8d",
      "lat": 10.494816734766394,
      "lng": -66.76262319087984,
      "address": "Calle La Linea cruce con 23 de enero Casa #17",
      "city": "Municipio Carlos Arvelo Parroquia Tacarigua",
      "state": "Carabobo",
      "severity": "moderado",
      "status": "received",
      "description": "Pared caída completamente , escaleras con grietas probablemente sin daño estructural",
      "ticket": "YMY-2026-1739",
      "photoCount": 2,
      "createdAt": "2026-06-30T12:16:11.689Z",
      "peopleAtRisk": false
    },
    {
      "id": "f62fd919-d0ac-4d77-a053-a64cdae0721d",
      "lat": 10.494816734766394,
      "lng": -66.76262319087984,
      "address": "Calle La Linea cruce con 23 de enero Casa #17",
      "city": "Brisas del avila",
      "state": "Miranda",
      "severity": "moderado",
      "status": "received",
      "description": "Paredes laterales con dañós de fisura",
      "ticket": "YMY-2026-1738",
      "photoCount": 10,
      "createdAt": "2026-06-30T11:37:01.990Z",
      "peopleAtRisk": false
    },
    {
      "id": "e8956ed1-8c67-4ff4-9109-30f0d0a6b959",
      "lat": 10.503086439662663,
      "lng": -66.95095270866659,
      "address": "Brisas del Ávila parte baja",
      "city": "La Guaira",
      "state": "La Guaira",
      "severity": "moderado",
      "status": "received",
      "description": "Persona aún con vida dentro de las residencias",
      "ticket": "YMY-2026-1736",
      "photoCount": 1,
      "createdAt": "2026-06-30T05:54:17.353Z",
      "peopleAtRisk": false
    },
    {
      "id": "d1b05cde-7d03-43ea-860b-3897091a97c0",
      "lat": 10.503086439662663,
      "lng": -66.95095270866659,
      "address": "Calle Ezequiel Zamora, callejón 4 casas, casa #27",
      "city": "Caracas, La Silsa",
      "state": "Distrito Capital",
      "severity": "colapso",
      "status": "received",
      "description": "Casa ubicada al fondo de un callejón de 4 casas. La calle frente al callejón se agrietó. Las casas a los laterales de la entrada del callejón están inestables e inclinadas una contra la otra. Las casas del callejon presentan grietas y paredes parcialmente colapsadas. La casa también presenta una grieta en la pared del baño y un derrumbe en una de las paredes.",
      "ticket": "YMY-2026-1735",
      "photoCount": 1,
      "createdAt": "2026-06-30T04:41:03.365Z",
      "peopleAtRisk": true
    },
    {
      "id": "67f98ea0-f06d-4645-8e45-4136b411b882",
      "lat": 10.4939331,
      "lng": -66.95095270866659,
      "address": "Calle Ezequiel Zamora, callejón 4 casas, casa #27",
      "city": "Caracas, La Silsa",
      "state": "Distrito Capital",
      "severity": "colapso",
      "status": "received",
      "description": "Casa ubicada al fondo de un callejón de 4 casas. La calle frente al callejón se agrietó. Las casas a los laterales de la entrada del callejón están inestables e inclinadas una contra la otra. Las casas del callejon presentan grietas y paredes parcialmente colapsadas. La casa también presenta una grieta en la pared del baño y un derrumbe en una de las paredes.",
      "ticket": "YMY-2026-1735",
      "photoCount": 8,
      "createdAt": "2026-06-30T03:53:33.860Z",
      "peopleAtRisk": false
    },
    {
      "id": "bcb6ca34-d545-4ce7-bd23-2d853520f060",
      "lat": 10.506168570963744,
      "lng": -66.94705338031521,
      "address": "Frente al hospital Elías Toro, se llama Hospital Hugo Chávez",
      "city": "Catia Pérez Bonalde",
      "state": "Distrito Capital",
      "severity": "moderado",
      "status": "received",
      "description": "Hospital de 8 pisos, ya tenía grietas previas al terremoto, ahora se ven por doquier, no sabemos si es seguro, las escaleras se despegaron, me da miedo hacer esta denuncia pero es por un bien mayor",
      "ticket": "YMY-2026-1733",
      "photoCount": 7,
      "createdAt": "2026-06-30T02:54:11.414Z",
      "peopleAtRisk": false
    },
    {
      "id": "64e3300b-fd96-4503-8673-37e8f481bb4e",
      "lat": 10.4798326,
      "lng": -66.94705338031521,
      "address": "Frente al hospital Elías Toro, se llama Hospital Hugo Chávez",
      "city": "Catia Pérez Bonalde",
      "state": "Distrito Capital",
      "severity": "moderado",
      "status": "received",
      "description": "Hospital de 8 pisos, ya tenía grietas previas al terremoto, ahora se ven por doquier, no sabemos si es seguro, las escaleras se despegaron, me da miedo hacer esta denuncia pero es por un bien mayor",
      "ticket": "YMY-2026-1732",
      "photoCount": 4,
      "createdAt": "2026-06-30T01:37:27.581Z",
      "peopleAtRisk": false
    },
    {
      "id": "1092b152-b31a-4b53-ae4f-4450349ae622",
      "lat": 10.4798326,
      "lng": -66.8165995,
      "address": "AV LAS FUENTES DEL PARAÍSO CONJUNTO RESIDENCIAL PARAISO",
      "city": "La California Norte",
      "state": "Distrito Capital",
      "severity": "moderado",
      "status": "received",
      "description": "Paredes inrernas agrietadas, escaleras de emergencia agrietadas fachada agrietada",
      "ticket": "YMY-2026-1732",
      "photoCount": 10,
      "createdAt": "2026-06-30T01:37:27.581Z",
      "peopleAtRisk": false
    },
    {
      "id": "1f99d4ec-4ad6-4153-bf09-b0e93eceaa5b",
      "lat": 10.4798326,
      "lng": -66.8165995,
      "address": "AV. FRANCISCO DE MIRANDA, RESIDENCIAS CRISTAL.",
      "city": "La California Norte",
      "state": "Distrito Capital",
      "severity": "leve",
      "status": "received",
      "description": "3 paredes caídas",
      "ticket": "YMY-2026-1731",
      "photoCount": 10,
      "createdAt": "2026-06-30T01:31:49.530Z",
      "peopleAtRisk": false
    },
    {
      "id": "4ae21e43-3a1b-4558-a4db-13541c6b2b68",
      "lat": 10.612216891164067,
      "lng": -66.8218541057033,
      "address": "",
      "city": "Capachalito",
      "state": "La Guaira",
      "severity": "moderado",
      "status": "received",
      "description": "3 paredes caídas",
      "ticket": "YMY-2026-1730",
      "photoCount": 2,
      "createdAt": "2026-06-30T00:52:53.279Z",
      "peopleAtRisk": false
    },
    {
      "id": "b689204d-b00c-4f35-9c09-19a6e3f71241",
      "lat": 10.4885183,
      "lng": -66.8218541057033,
      "address": "Vista hermosa",
      "city": "tanaguarenas",
      "state": "Distrito Capital",
      "severity": "moderado",
      "status": "received",
      "description": "Paredes caidas",
      "ticket": "YMY-2026-1728",
      "photoCount": 2,
      "createdAt": "2026-06-30T00:51:59.885Z",
      "peopleAtRisk": false
    },
    {
      "id": "4257186d-8628-42d6-b673-1e391b17db3b",
      "lat": 10.4885183,
      "lng": -66.8099893,
      "address": "Vista hermosa",
      "city": "Petare",
      "state": "Distrito Capital",
      "severity": "moderado",
      "status": "received",
      "description": "Paredes y columnas rajadas",
      "ticket": "YMY-2026-1728",
      "photoCount": 1,
      "createdAt": "2026-06-30T00:09:29.763Z",
      "peopleAtRisk": false
    },
    {
      "id": "bccc8b66-1bf1-4632-bcc7-babe320f9fb5",
      "lat": 10.4690743,
      "lng": -66.8099893,
      "address": "Calle naiguata, residencias codica. Torre B donde esta la clínica dental.",
      "city": "El marques",
      "state": "Distrito Capital",
      "severity": "moderado",
      "status": "received",
      "description": "Paredes de la entrada agrietadas. Arcos de paredes agrietados. Paredes de cuartos agrietados. Pared de entrada principal con grieta horizontal.",
      "ticket": "YMY-2026-1727",
      "photoCount": 10,
      "createdAt": "2026-06-30T00:09:29.763Z",
      "peopleAtRisk": false
    },
    {
      "id": "ae306ba6-6a52-48d0-b6fa-dbc7e1b36aa5",
      "lat": 10.4690743,
      "lng": -66.9818265,
      "address": "Antimano la cancha de las moro chas",
      "city": "Sector Caribe Los Cocos",
      "state": "Distrito Capital",
      "severity": "colapso",
      "status": "received",
      "description": "Paredes agrietadas de toda la y piso del baño y mitac de la casa undido",
      "ticket": "YMY-2026-1725",
      "photoCount": 1,
      "createdAt": "2026-06-30T00:08:51.566Z",
      "peopleAtRisk": false
    },
    {
      "id": "91fc39c5-4161-48a9-8c1f-8ece5085e873",
      "lat": 10.4690743,
      "lng": -66.857927441597,
      "address": "Antimano la cancha de las moro chas",
      "city": "Caracas",
      "state": "Miranda",
      "severity": "moderado",
      "status": "received",
      "description": "Paredes agrietadas de toda la y piso del baño y mitac de la casa undido",
      "ticket": "YMY-2026-1724",
      "photoCount": 4,
      "createdAt": "2026-06-29T23:34:52.066Z",
      "peopleAtRisk": false
    },
    {
      "id": "7bc6c789-daea-4527-915a-a6786cc97365",
      "lat": 10.596163576086944,
      "lng": -67.0100283,
      "address": "Residencia opp26",
      "city": "Playa Los Cocos",
      "state": "La Guaira",
      "severity": "colapso",
      "status": "received",
      "description": "Desplomó mi hermana se encuentra hay se llama Raquel Ponce Guzmán",
      "ticket": "YMY-2026-1719",
      "photoCount": 0,
      "createdAt": "2026-06-29T23:21:32.882Z",
      "peopleAtRisk": false
    },
    {
      "id": "72d95dec-3bc6-4e28-bee9-8174517bd80d",
      "lat": 10.596163576086944,
      "lng": -67.01002836238332,
      "address": "Residencia opp26",
      "city": "Playa Los Cocos",
      "state": "La Guaira",
      "severity": "colapso",
      "status": "received",
      "description": "Desplomó mi hermana se encuentra hay se llama Raquel Ponce Guzmán",
      "ticket": "YMY-2026-1717",
      "photoCount": 0,
      "createdAt": "2026-06-29T23:21:30.274Z",
      "peopleAtRisk": false
    },
    {
      "id": "879a111a-bb55-4b5d-b573-fefe3c401069",
      "lat": 10.596163576086944,
      "lng": -67.01002836238332,
      "address": "Residencia opp26",
      "city": "Playa Los Cocos",
      "state": "La Guaira",
      "severity": "colapso",
      "status": "received",
      "description": "Caido el revestimiento de las paredes",
      "ticket": "YMY-2026-1716",
      "photoCount": 0,
      "createdAt": "2026-06-29T23:21:30.274Z",
      "peopleAtRisk": false
    },
    {
      "id": "39f9796e-cf52-40b5-b7f2-f8df6bfe5b08",
      "lat": 10.596163576086944,
      "lng": -67.01002836238332,
      "address": "CASERIO EL MAYAL, SECTOR LOS CAÑIZOS A TRES CUADRAS DE LA ESCUELA MIGUEL RENOM",
      "city": "Urimare",
      "state": "Otro",
      "severity": "moderado",
      "status": "received",
      "description": "Techo de placa con cañabrava a punto de ceder",
      "ticket": "YMY-2026-1715",
      "photoCount": 0,
      "createdAt": "2026-06-29T23:18:28.048Z",
      "peopleAtRisk": false
    },
    {
      "id": "66b0d6d3-4db4-4548-9870-6d1631d376c8",
      "lat": 10.5023823,
      "lng": -66.9016859,
      "address": "playa grande",
      "city": "Cabudare",
      "state": "La Guaira",
      "severity": "moderado",
      "status": "received",
      "description": "Edificio derrumbado",
      "ticket": "YMY-2026-1715",
      "photoCount": 2,
      "createdAt": "2026-06-29T22:27:22.976Z",
      "peopleAtRisk": false
    },
    {
      "id": "7e3582ad-f946-45f6-9288-8356203bf88f",
      "lat": 10.5012409,
      "lng": -66.9016859,
      "address": "Villas de Buenaventura",
      "city": "Edificios Zuma Hugo Chávez de playa grande",
      "state": "Miranda",
      "severity": "colapso",
      "status": "received",
      "description": "Son los únicos videos que tengo que me envió mi papá, las grietas son las que se ven allí",
      "ticket": "YMY-2026-1713",
      "photoCount": 0,
      "createdAt": "2026-06-29T22:25:00.565Z",
      "peopleAtRisk": false
    },
    {
      "id": "9079f924-ce01-439f-9ec2-286496dfe28c",
      "lat": 10.5012409,
      "lng": -66.9456363,
      "address": "Calle Principal del Mirador, 23 de Enero",
      "city": "Caracas",
      "state": "Distrito Capital",
      "severity": "moderado",
      "status": "received",
      "description": "Paredes con grietas en las uniones de los soportes con las paredes, grietas en las paredes en general y en uniones",
      "ticket": "YMY-2026-1712",
      "photoCount": 2,
      "createdAt": "2026-06-29T22:04:14.611Z",
      "peopleAtRisk": false
    },
    {
      "id": "34b309bf-bd51-4c03-85c9-cd7591892451",
      "lat": 10.5012409,
      "lng": -66.9456363,
      "address": "Calle Principal del Mirador, 23 de Enero",
      "city": "Catia",
      "state": "Distrito Capital",
      "severity": "moderado",
      "status": "received",
      "description": "Paredes con grietas en las uniones de los soportes con las paredes, grietas en las paredes en general y en uniones",
      "ticket": "YMY-2026-1711",
      "photoCount": 4,
      "createdAt": "2026-06-29T22:04:14.611Z",
      "peopleAtRisk": false
    }
  ],
  "help_centers": [
    {
      "id": "1fc2d01f-df91-4f11-8b15-549734f2af12",
      "lat": 10.493916521612976,
      "lng": -66.8569439649582,
      "address": "Calle Sucre de Chacao. Frente a la Panaderia Nueva Chacao",
      "city": "Caracas",
      "state": "Distrito Capital",
      "name": "Centro de Acopio Calle Sucre de Chacao",
      "phone": "0424 116-7756"
    },
    {
      "id": "f6cc2160-54c0-4408-af9b-ae197463aea0",
      "lat": 10.2379025,
      "lng": -66.8584739,
      "address": "Calle 8 Sector Ponsigue Cua",
      "city": "Cúa",
      "state": "Miranda",
      "name": "Iglesia Luz que resplandece Cua",
      "phone": "0412 358-5948"
    },
    {
      "id": "5f852c79-c493-4cc8-8148-0c734a984b59",
      "lat": 10.4825824,
      "lng": -66.8880477,
      "address": "Caracas, Los chaguaramos",
      "city": "Caracas",
      "state": "Distrito Capital",
      "name": "Jundajoven",
      "phone": "0424 200-6091"
    },
    {
      "id": "20a7bdd4-afa6-434c-a117-ef87487bff16",
      "lat": 10.033232724223197,
      "lng": -69.411042659931,
      "address": "Ruiz Pineda I Calle 5 entre 6 y 7 Edificio Laraya",
      "city": "Barquisimeto",
      "state": "Lara",
      "name": "CENTRO DE ACOPIO RUIZ PINEDA I",
      "phone": "0412 155-3311"
    },
    {
      "id": "7f2d2840-2b39-42c9-ac95-1a23cc1fdeec",
      "lat": 10.182753374342875,
      "lng": -64.6890637278557,
      "address": "C.C La Concha, Av Diego Bautista Urbaneja",
      "city": "Lechería",
      "state": "Anzoátegui",
      "name": "Sede de Rotary Puerto La Cruz",
      "phone": "0412 834-1583"
    },
    {
      "id": "7254b26d-24a5-418e-a9a7-de6082f81d10",
      "lat": 10.4762843,
      "lng": -66.8900585,
      "address": "Avenida rufino blanco fombona con calle lisandro Álvaro. Quinta jymtov. Santa Mónica",
      "city": "Caracas",
      "state": "Distrito Capital",
      "name": "Anapace",
      "phone": "0412 566-5998"
    },
    {
      "id": "033dc780-6e79-4ef7-9e28-5949afdd6c55",
      "lat": 10.504921454790374,
      "lng": -66.90447784476918,
      "address": "Plaza la candelaria",
      "city": "Caracas",
      "state": "Distrito Capital",
      "name": "Centro de acopio universidad Santa María y parroquia Maria auxiliadora",
      "phone": "0414 285-7100"
    },
    {
      "id": "e69c378e-018f-4759-a144-617c2f919b00",
      "lat": 10.670478415298515,
      "lng": -71.60916566848756,
      "address": "carrera 24 entre calles 28 y 29 sector centro",
      "state": "Zulia",
      "name": "Av. 72 con Bella Vista",
      "phone": "0412 708-0457",
      "additionalInfo": "¡Toda colaboración es bien recibida! Insumos médicos, Higiene, Productos para bebés, Ropa y Calzado en buen estado, Cobijas y Sábanas, Alimentos no perecederos. Cada aporte cuenta.",
      "status": "approved",
      "createdAt": "2026-06-30T19:05:59.282Z"
    },
    {
      "id": "9a77f7bb-59f5-465d-8517-5a2a0d099b8a",
      "lat": 10.070858989600206,
      "lng": -69.31358371906423,
      "address": "carrera 24 entre calles 28 y 29 sector centro",
      "city": "Barquisimeto",
      "state": "Lara",
      "name": "MAIRA RAQUEL PEREZ",
      "phone": "0424 570-5473"
    },
    {
      "id": "54dc1c1f-1d66-4b95-92d8-20392c18a093",
      "lat": 10.154622053519654,
      "lng": -67.96090905617288,
      "address": "Urb Parque Valencia Sector 31 Casa #5",
      "city": "Valencia",
      "state": "Carabobo",
      "name": "Unidad Educativa Virgen de Guadalupe",
      "phone": "0424 423-6751"
    },
    {
      "id": "ced2229c-887c-4a77-97f9-2ff933d897fc",
      "lat": 10.676045180573098,
      "lng": -71.60229384899141,
      "address": "Cecilio acosta",
      "city": "Maracaibo",
      "state": "Zulia",
      "name": "Colegio Bella Vista",
      "phone": "0412 120-7906"
    },
    {
      "id": "ed8ac49e-4c27-4c26-86f0-c180cb7019c7",
      "lat": 10.650884787826532,
      "lng": -71.59777343273164,
      "address": "Segunda entrada Vereda del Lago, Av. El Milagro",
      "city": "Maracaibo",
      "state": "Zulia",
      "name": "Centro La Meta",
      "phone": "0412 230-0033"
    },
    {
      "id": "2117c691-4e9b-4e49-98d3-aac810b05ffc",
      "lat": 10.491255304992098,
      "lng": -66.85377079061074,
      "address": "Av Libertador Multicentro Empresarial del este",
      "city": "Caracas",
      "state": "Distrito Capital",
      "name": "Iglesia Cristiana Presencia Viva",
      "phone": "0424 234-3254"
    },
    {
      "id": "8b90ca34-6ea1-48ad-9aa7-f9c85a8bbf2d",
      "lat": 10.486122156878844,
      "lng": -66.86561619177208,
      "address": "Centro Venezolano Americano CVA, las Mercedes, Caracas.",
      "city": "Caracas",
      "state": "Distrito Capital",
      "name": "PUNTO USB - CVA Las Mercedes",
      "phone": "0412 926-7897"
    },
    {
      "id": "218843f0-5c58-431b-8f2b-36a290dc0fba",
      "lat": 10.502145887203902,
      "lng": -66.85713966326222,
      "address": "Quinta Ninina, Av. Mohedano, entre 1era y 2da transversal, La Castellana, Municipio Chacao, Miranda, Venezuela",
      "city": "Caracas",
      "state": "Distrito Capital",
      "name": "Donaciones - Centro de Acopio",
      "phone": "0414 366-3969"
    },
    {
      "id": "6a8ec463-0cd3-4fdc-b765-f41ba12b0762",
      "lat": 10.079535371424313,
      "lng": -69.28982466459276,
      "address": "Av libertador curia de Barquisimeto , frente a automercado pa todo",
      "city": "Barquisimeto",
      "state": "Lara",
      "name": "Curia De la Arquidiócesis De Barquisimeto",
      "phone": "0426 435-9129"
    },
    {
      "id": "a28e21a5-daf2-471f-b429-30f293fcb720",
      "lat": 10.5026917298908,
      "lng": -66.85674458742143,
      "address": "Chacao · Venezuela · Quinta Ninina, Av. Mohedano, entre 1era y 2da transversal, La Castellana, Municipio Chacao, Miranda, Venezuela",
      "city": "Caracas",
      "state": "Distrito Capital",
      "name": "Fundación Andrés Bello",
      "phone": "0414 255-9773"
    },
    {
      "id": "031a70ea-2459-441e-ad20-c3f7f3ae1db4",
      "lat": 8.2464773923076,
      "lng": -62.80554366479359,
      "address": "Urb. Villa Betania, Vila 17, Puerto Ordaz.",
      "city": "Puerto Ordaz",
      "state": "Bolívar",
      "name": "Comunidad Cristiana Apostólica Hosanna",
      "phone": "0424 922-7004"
    },
    {
      "id": "3163b10d-9216-4647-85e9-530c1abba671",
      "lat": 8.286089735382637,
      "lng": -62.75047276437305,
      "address": "Centro Empresarial Etna, Ubicado en la UD 283. Manzana 00, parcela numero 18, en la Carrera Aerocuar Municipio Caroní Estado Bolívar, detrás del bodegón Grado 33. (Portón azul)",
      "city": "Puerto Ordaz",
      "state": "Bolívar",
      "name": "Global2020",
      "phone": "0424 934-5508"
    },
    {
      "id": "05900a26-a8e5-450b-84d7-39c8647fb25d",
      "lat": 10.371792134604194,
      "lng": -66.97301030158998,
      "address": "San Antonio de los altos, C.C La colina, PB",
      "city": "San Antonio de los altos",
      "state": "Miranda",
      "name": "Fundación Gotas de luz",
      "phone": "4149 818-009"
    },
    {
      "id": "d9a210da-1f71-4e5f-a7b6-6ed98ab9fa8c",
      "lat": 10.499337101434639,
      "lng": -66.90669000148775,
      "address": "AV. BERMÚDEZ A AV. HORCONES LOCAL NUMERO 7 SECTOR SAN AGUSTÍN DEL NORTE. PUNTO DE REFERENCIA AL FRENTE DEL RESTAURANTE VALPARAÍSO",
      "city": "Caracas",
      "state": "Distrito Capital",
      "name": "CENTRO DE ACOPIO - CARACAS",
      "phone": "0412 589-3792"
    },
    {
      "id": "f2f88c8e-1be5-4683-bc41-36f8b14068fd",
      "lat": 8.304236740354353,
      "lng": -62.7230183014018,
      "address": "Centro Comercial Costa America, Puerto Ordaz",
      "city": "Puerto Ordaz",
      "state": "Bolívar",
      "name": "Libreria Latina Costa America",
      "phone": "0424 952-0301"
    },
    {
      "id": "0a694e7f-a9a1-4e04-bb10-5e3b8b00b931",
      "lat": 8.292024834002447,
      "lng": -62.743169588756956,
      "address": "Orinokia Mall, Pasillo Nivel Acero. Frente a Forever21",
      "city": "Puerto Ordaz",
      "state": "Bolívar",
      "name": "Crazy Pets Orinokia",
      "phone": "0424 923-1448"
    },
    {
      "id": "0ecbacc8-7a2e-42d5-9021-741cd9b6de32",
      "lat": 10.067141806573428,
      "lng": -69.28478747606279,
      "address": "Av los leones",
      "city": "Barquisimeto",
      "state": "Lara",
      "name": "C.C Ciudad París",
      "phone": "0414 973-3307"
    },
    {
      "id": "38772f4b-847b-4390-87b5-f8755aad150e",
      "lat": 10.271229925656888,
      "lng": -67.59154647588731,
      "address": "Calle el Araguaney, edificio Rotary Maracay.",
      "city": "Maracay",
      "state": "Aragua",
      "name": "Centro de Acopio - Rotaract Maracay",
      "phone": "0424 349-0934"
    },
    {
      "id": "a5bbbfe5-b8dc-4716-8ec9-d078d1a3a089",
      "lat": 8.298285437777913,
      "lng": -62.72783675734041,
      "address": "Estacionamiento de la Torre Movistar, Alta Vista",
      "city": "Puerto Ordaz",
      "state": "Bolívar",
      "name": "Donde Yisus",
      "phone": "0424 908-0835"
    },
    {
      "id": "8d3ca99a-8204-45b4-88dd-41520bc35ab9",
      "lat": 8.306894002001103,
      "lng": -62.725024003952925,
      "address": "C.C Chilemex, Calle Mexico, Puerto Ordaz",
      "city": "Puerto Ordaz",
      "state": "Bolívar",
      "name": "La Alacena",
      "phone": "0416 094-1257"
    },
    {
      "id": "fa4fca6d-7423-4b0b-9d4b-6c4cd9fda6cb",
      "lat": 10.077699793885335,
      "lng": -69.30880065703606,
      "address": "Av carga entre calles 30 y 31",
      "city": "Barquisimeto",
      "state": "Lara",
      "name": "Colegio de Médico Edo lara",
      "phone": "0424 525-9295"
    },
    {
      "id": "01e39eb7-85ae-43df-9f16-fe6901bf56df",
      "lat": 10.5141858,
      "lng": -66.9126127,
      "address": "El panteón nacional diagonal al hospital Vargas.",
      "city": "Caracas",
      "state": "Distrito Capital",
      "name": "Centro de acopio El panteón.",
      "phone": "0424 291-0903"
    },
    {
      "id": "db00ccbf-6dd3-48a0-8908-466bf5f7c08d",
      "lat": 10.5160082,
      "lng": -66.9035335,
      "address": "Calle Fermín Toro 2 San Bernardino.",
      "city": "Caracas",
      "state": "Distrito Capital",
      "name": "Centro de acopio Plaza Fermín Toro 2",
      "phone": "0424 101-4251"
    },
    {
      "id": "06dd4800-32c7-4940-9f19-8fb85cd37bdf",
      "lat": 10.272306455743747,
      "lng": -67.58512429325036,
      "address": "AVENIDA LAS DELICIAS DENTRO DE LAS INSTALACIONES DEL CIRCULO MILITAR, MARACAY, ESTADO ARAGUA",
      "city": "Maracay",
      "state": "Aragua",
      "name": "Supermercados Luxor",
      "phone": "0424 239-7762"
    },
    {
      "id": "45f63c26-3567-49fc-87ee-d8f55397b691",
      "lat": 10.259661987440483,
      "lng": -67.59052455425264,
      "address": "Av Ppal Las delicias, Urb. El Bosque; Edificio Torre Maracay PB Local #3",
      "city": "Maracay",
      "state": "Aragua",
      "name": "Demaciao Pizzas - Centro de Acopio",
      "phone": "0424 374-1475"
    },
    {
      "id": "2038666a-d416-45d5-a321-49a3a7f57198",
      "lat": 10.186838337259847,
      "lng": -64.68901995549628,
      "address": "Av principal de Lecheria. Cc forum plaza pb local 1",
      "city": "Lechería",
      "state": "Anzoátegui",
      "name": "Alcaldía de Lecheria",
      "phone": "0414 801-1609"
    },
    {
      "id": "7a7eb30d-d8ff-4548-9952-9a0267b03d02",
      "lat": 10.072776408477143,
      "lng": -69.30660500103427,
      "address": "Carrera 25 entre calles 14 y 15",
      "city": "Barquisimeto",
      "state": "Lara",
      "name": "Hospitour",
      "phone": "0424 554-1012"
    },
    {
      "id": "4aaceebd-3e3d-48c9-a0a4-b281d0deaf03",
      "lat": 10.5138065,
      "lng": -66.9011123,
      "address": "Av cristobal mendoza, iglesia san bernardino de siena",
      "city": "Caracas",
      "state": "Distrito Capital",
      "name": "Centro de acopio parroquia san bernardino de siena",
      "phone": "0426 613-2567"
    },
    {
      "id": "169c927e-3663-40b3-8a3b-e87b57b6745f",
      "lat": 10.465322797092572,
      "lng": -66.85800331694068,
      "address": "Miranda, municipio Baruta, URB. Santa Rosa de Lima, calle A, más arriba del supermercado Santa Rosa de Lima",
      "city": "Caracas",
      "state": "Distrito Capital",
      "name": "Federación Venezolana de tenis/ Centro de acopio",
      "phone": "0412 552-2365"
    },
    {
      "id": "5c4f5a37-e007-4465-bff3-d46b86263a3d",
      "lat": 10.5127907,
      "lng": -66.9071205,
      "address": "Calle san jose, pto ref jefatura de san jose",
      "city": "Caracas",
      "state": "Distrito Capital",
      "name": "Centro de acopio",
      "phone": "0412 577-6423"
    },
    {
      "id": "28e03b1d-13ce-4956-a284-9d817b23461d",
      "lat": 8.283417468803297,
      "lng": -62.755515024821456,
      "address": "Av. Paseo Carini, Carrera Manzanares, Unare I.",
      "city": "Puerto Ordaz",
      "state": "Bolívar",
      "name": "Falini, Sellos y Rodamientos",
      "phone": "0412 480-0167"
    },
    {
      "id": "63fe56aa-1fd9-40f1-a14f-c8330c17a153",
      "lat": 10.497042641197144,
      "lng": -66.85303777456285,
      "address": "Avenida Ávila, quinta madre selva número 7 Chacao urbanización la castellana",
      "city": "Caracas",
      "state": "Distrito Capital",
      "name": "Instituto de diseño de caracas",
      "phone": "0412 660-7850"
    },
    {
      "id": "0118cfef-f460-44bf-af01-b010a7f2deb5",
      "lat": 10.475954085142291,
      "lng": -66.95044727383696,
      "address": "Montalban 1",
      "city": "Caracas",
      "state": "Distrito Capital",
      "name": "Parroquia Nuestra Señora de la Paz",
      "phone": "0424 168-6226"
    },
    {
      "id": "b8ce0539-3391-4cae-99cb-2919273a2a22",
      "lat": 8.299378670248696,
      "lng": -62.711593968260246,
      "address": "Unidad Educativa Colegio Loyola Gumilla, Edificio de Post Grado",
      "city": "Puerto Ordaz",
      "state": "Bolívar",
      "name": "AMA Academia",
      "phone": "0424 974-1166"
    },
    {
      "id": "0e4203fb-47d0-49aa-aa11-d3a9b5a81ba1",
      "lat": 10.1741033,
      "lng": -64.6504117,
      "address": "Av. Algimiro Gabaldón / Via Alterna",
      "city": "Barcelona",
      "state": "Anzoátegui",
      "name": "CENTRO DE ACOPIO UDO ANZOÁTEGUI",
      "phone": "0424 844-2750"
    },
    {
      "id": "f0c83d96-e4e1-4116-9393-f5b4fe2857cd",
      "lat": 10.501834615233822,
      "lng": -66.89657270908357,
      "address": "Boulevard Amador Bendayán, Quebrada Honda",
      "city": "Caracas",
      "state": "Distrito Capital",
      "name": "Quebrada Honda - Sistema Nacional de Orquestas y Coros Juveniles e Infantiles de Venezuela",
      "phone": "0424 199-4116"
    },
    {
      "id": "61061ceb-c2ee-42da-8c58-435c96090901",
      "lat": 10.466535202068828,
      "lng": -66.85939182609171,
      "address": "Calle A, sede ASOLIMA, alado del módulo de Policía",
      "city": "Caracas",
      "state": "Distrito Capital",
      "name": "ASOLIMA",
      "phone": "0414 236-4638"
    },
    {
      "id": "a3a0a6e3-c98e-49c8-93eb-ef6c629d9ff5",
      "lat": 10.2252621,
      "lng": -67.5968255,
      "address": "CC Madre María, Nivel PB Calle Intercomunal Los Samanes, Maracay.",
      "city": "Maracay",
      "state": "Aragua",
      "name": "Denver - Centro de Acopio",
      "phone": "0424 374-1475"
    },
    {
      "id": "3e519bf8-254c-45e9-a455-0d874395b575",
      "lat": 10.4947746,
      "lng": -66.8535075,
      "address": "Plaza Bolívar de Chacao, ambulatorios.",
      "city": "Caracas",
      "state": "Distrito Capital",
      "name": "Centro acopio Plaza Bolívar de Chacao",
      "phone": "0424 242-7726"
    },
    {
      "id": "5b631a29-51d1-4753-aeac-2bfeaecbceba",
      "lat": 10.672466834340105,
      "lng": -71.6062414885665,
      "address": "Sector, Bellas Artes, entre calle 72 y 71 Avenida 3G, Maracaibo 4001, Zulia",
      "city": "Maracaibo",
      "state": "Zulia",
      "name": "Hotel Santa Bárbara",
      "phone": "0412 270-2185"
    },
    {
      "id": "100fd5a5-e892-4178-a72f-d385b1417452",
      "lat": 10.26,
      "lng": -67.58,
      "address": "Av. José Casanova Godoy c/c Av. Fuerzas Aéreas, Maracay, edo. Aragua.",
      "city": "Maracay",
      "state": "Aragua",
      "name": "Centro Comercial Hyper Jumbo",
      "phone": "0412 460-2308"
    },
    {
      "id": "69262c7a-f452-4f20-b01c-d13160f03a75",
      "lat": 10.4999639,
      "lng": -66.8439294,
      "address": "Av Sucre Calle Principal Del Manicomio, Casa #13",
      "city": "Caracas",
      "state": "Distrito Capital",
      "name": "Centro de acopio Plaza los palos grandes.",
      "phone": "0424 204-2254"
    },
    {
      "id": "c4b5917c-6ad3-4d6b-84d4-b4d4f74b8086",
      "lat": 10.15051254082188,
      "lng": -64.68959212303163,
      "address": "Av. Centurión, Nueva Barcelona a 100 metros de AIKOZ",
      "city": "Barcelona",
      "state": "Anzoátegui",
      "name": "Peticecream",
      "phone": "0412 946-1503"
    },
    {
      "id": "06c65234-774c-4da6-b623-afdb3af41b5b",
      "lat": 10.5022287,
      "lng": -66.9540148,
      "address": "1era avenida de propatria al lado del CICPC delegación oeste",
      "city": "Caracas",
      "state": "Distrito Capital",
      "name": "Centro de acopio Sergio Medina",
      "phone": "0414 208-6448"
    },
    {
      "id": "8d8049a3-2f3a-489b-a530-8407311ed568",
      "lat": 10.136759299890075,
      "lng": -64.68648612499238,
      "address": "Av. 5 de Julio Barcelona, Edo Anzoátegui al lado de la plaza bolivar",
      "city": "Barcelona",
      "state": "Anzoátegui",
      "name": "Anzoátegui solidario",
      "phone": "0424 919-5566"
    },
    {
      "id": "297714d1-0f98-43e1-b8b4-c792d847f417",
      "lat": 10.172021399103118,
      "lng": -64.68605482761038,
      "address": "sector colinas del neveri",
      "city": "Barcelona",
      "state": "Anzoátegui",
      "name": "Mi Todohogar suc colinas",
      "phone": "0412 113-9636"
    },
    {
      "id": "a9a90442-8942-4fcb-bcb9-e49a34cbf99f",
      "lat": 10.4927449,
      "lng": -66.8722152,
      "address": "Sabana grande. Avenida santos erminy con avenida Francisco Solano. Al lado de tienda BigHome.",
      "city": "Caracas",
      "state": "Distrito Capital",
      "name": "Federación Venezolana de Fútbol",
      "phone": "0412 287-9035"
    },
    {
      "id": "8b856801-566f-4c75-973b-cba3e796fd0f",
      "lat": 10.1986249,
      "lng": -68.0155768,
      "address": "urb agua blanca calle 119, Casa 105-585",
      "city": "Valencia",
      "state": "Carabobo",
      "name": "Academia de Canto Sonata",
      "phone": "0414 413-4323"
    },
    {
      "id": "d2d871f5-2e9e-4aa7-bf15-486e1ccd5e1e",
      "lat": 10.207008838141592,
      "lng": -67.99980864373164,
      "address": "La trigaleña - Al lado del club italo",
      "city": "Valencia",
      "state": "Carabobo",
      "name": "El Patio Bar",
      "phone": "0414 429-8099"
    }
  ]
}
